% program   : ES dev:6c22c8ac-Dev
% inp file  : C:/Users/DaaS-102/Desktop/New folder/19 Feb/CS01_F3/ROVER/AT-05-089-R_raw_20230219091143_UBX\rinex_AT-05-089-R_raw_20230219091143\AT-05-089-R_raw_20230219091143.23O
% inp file  : C:/Users/DaaS-102/Desktop/New folder/19 Feb/CS01_F3/ROVER/AT-05-089-R_raw_20230219091143_UBX\rinex_AT-05-089-R_raw_20230219091143\AT-05-089-R_raw_20230219091143.23P
% inp file  : C:/Users/DaaS-102/Desktop/New folder/19 Feb/CS01_F3/BASE DATA/AT-05-089-B_raw_202302190903_ubx\rinex_AT-05-089-B_raw_202302190903\AT-05-089-B_raw_202302190903.23O
% obs start : 2023/02/19 09:12:20.4 GPST (week2250  33140.4s)
% obs end   : 2023/02/19 10:04:14.8 GPST (week2250  36254.8s)
% ref pos   : 16.784684969  82.206179421  -60.0836
%
% (lat/lon/height=WGS84/ellipsoidal,Q=1:fix,2:float,3:sbas,4:dgps,5:single,6:ppp,ns=# of satellites)
%  GPST                  latitude(deg) longitude(deg)  height(m)   Q  ns   sdn(m)   sde(m)   sdu(m)  sdne(m)  sdeu(m)  sdun(m) age(s)  ratio
2023/02/19 09:16:18.226   16.784702005   82.206246851   -59.8518   1  24   0.0017   0.0027   0.0069  -0.0002   0.0019  -0.0013  -0.00   13.9
2023/02/19 09:16:21.327   16.784701841   82.206246795   -59.8724   1  25   0.0017   0.0026   0.0068  -0.0004   0.0020  -0.0012  -0.00    3.9
2023/02/19 09:16:23.567   16.784701830   82.206247001   -59.8606   1  25   0.0017   0.0026   0.0068  -0.0004   0.0020  -0.0012  -0.00   13.3
2023/02/19 09:16:27.527   16.784701687   82.206246912   -59.8751   1  25   0.0017   0.0026   0.0068  -0.0004   0.0020  -0.0013  -0.00   23.3
2023/02/19 09:18:40.728   16.781510359   82.208191433    54.9399   1  24   0.0017   0.0027   0.0071  -0.0002   0.0022  -0.0010  -0.00  100.0
2023/02/19 09:18:42.186   16.781310368   82.208123938    56.5953   1  24   0.0018   0.0028   0.0073  -0.0004   0.0021  -0.0006  -0.00  253.4
2023/02/19 09:18:43.767   16.781139393   82.207965450    55.9052   1  24   0.0021   0.0031   0.0085  -0.0004   0.0026  -0.0014  -0.00  663.8
2023/02/19 09:18:45.426   16.781064771   82.207726996    55.2326   1  24   0.0021   0.0031   0.0080   0.0007   0.0027   0.0005  -0.00  537.9
2023/02/19 09:18:47.007   16.781115127   82.207491380    54.6089   1  25   0.0021   0.0030   0.0077   0.0007   0.0027   0.0010  -0.00    4.0
2023/02/19 09:18:48.687   16.781274969   82.207297904    54.9052   1  25   0.0022   0.0031   0.0083   0.0006   0.0027  -0.0010  -0.00   55.4
2023/02/19 09:18:50.287   16.781494967   82.207217913    56.2280   1  25   0.0017   0.0028   0.0072  -0.0002   0.0021  -0.0007  -0.00   25.7
2023/02/19 09:18:51.906   16.781727578   82.207200504    56.9690   1  26   0.0018   0.0027   0.0071  -0.0008   0.0018  -0.0011  -0.00    4.0
2023/02/19 09:18:53.487   16.781958885   82.207181793    55.8037   1  26   0.0020   0.0028   0.0074  -0.0009   0.0019  -0.0016  -0.00   32.8
2023/02/19 09:18:55.106   16.782198532   82.207130597    56.1074   1  26   0.0020   0.0029   0.0081  -0.0005   0.0022  -0.0015  -0.00   12.5
2023/02/19 09:18:56.647   16.782406285   82.207029657    56.7178   1  26   0.0020   0.0028   0.0074  -0.0005   0.0015  -0.0016  -0.00  110.1
2023/02/19 09:18:58.266   16.782596877   82.206880657    57.0853   1  25   0.0022   0.0029   0.0080  -0.0006   0.0021  -0.0018  -0.00    7.7
2023/02/19 09:18:59.847   16.782770673   82.206720198    57.1752   1  25   0.0020   0.0029   0.0074   0.0005   0.0021   0.0004  -0.00   25.5
2023/02/19 09:19:01.426   16.782943179   82.206552771    57.2401   1  25   0.0020   0.0028   0.0074  -0.0009   0.0022  -0.0013  -0.00   56.8
2023/02/19 09:19:03.008   16.783107595   82.206375273    56.4696   1  25   0.0021   0.0030   0.0079  -0.0003   0.0025  -0.0012  -0.00   75.0
2023/02/19 09:19:04.586   16.783271060   82.206200323    56.0709   1  25   0.0017   0.0028   0.0073  -0.0004   0.0021  -0.0006  -0.00   49.1
2023/02/19 09:19:06.207   16.783433026   82.206023942    56.3058   1  25   0.0022   0.0030   0.0078   0.0008   0.0023   0.0003  -0.00   11.2
2023/02/19 09:19:07.866   16.783604061   82.205854215    56.6400   1  25   0.0022   0.0030   0.0077   0.0007   0.0023   0.0009  -0.00    9.7
2023/02/19 09:19:09.486   16.783770207   82.205684805    56.2094   1  25   0.0019   0.0028   0.0074  -0.0005   0.0022  -0.0008  -0.00   13.8
2023/02/19 09:19:11.186   16.783936057   82.205502201    55.8706   1  25   0.0018   0.0028   0.0073  -0.0005   0.0022  -0.0007  -0.00   24.9
2023/02/19 09:19:12.807   16.784098229   82.205329834    56.0761   1  25   0.0020   0.0029   0.0074   0.0004   0.0021   0.0006  -0.00   64.9
2023/02/19 09:19:14.466   16.784264578   82.205152151    56.1786   1  25   0.0021   0.0030   0.0080   0.0002   0.0021  -0.0004  -0.00  213.3
2023/02/19 09:19:16.086   16.784424133   82.204969225    56.7323   1  25   0.0021   0.0031   0.0084  -0.0005   0.0027  -0.0014  -0.00    6.7
2023/02/19 09:19:17.666   16.784584487   82.204792269    56.8272   1  25   0.0022   0.0030   0.0078   0.0008   0.0023   0.0004  -0.00   45.5
2023/02/19 09:19:19.287   16.784758167   82.204627647    57.6063   1  25   0.0021   0.0029   0.0078   0.0004   0.0022  -0.0007  -0.00   54.4
2023/02/19 09:19:20.906   16.784930548   82.204458203    57.7988   1  25   0.0021   0.0030   0.0077   0.0007   0.0023   0.0011  -0.00  208.6
2023/02/19 09:19:22.487   16.785096038   82.204283781    58.1865   1  25   0.0021   0.0029   0.0075   0.0003   0.0022   0.0003  -0.00   94.1
2023/02/19 09:19:24.106   16.785260866   82.204104841    58.8438   1  25   0.0019   0.0030   0.0076   0.0004   0.0021   0.0007  -0.00    6.0
2023/02/19 09:19:25.687   16.785429569   82.203939728    59.5066   1  25   0.0022   0.0030   0.0075   0.0008   0.0020  -0.0008  -0.00   28.6
2023/02/19 09:19:27.306   16.785604204   82.203773746    59.4355   1  25   0.0023   0.0030   0.0083  -0.0001   0.0025  -0.0016  -0.00    3.9
2023/02/19 09:19:28.926   16.785764981   82.203594883    58.7174   1  25   0.0021   0.0031   0.0081   0.0007   0.0027   0.0001  -0.00   14.2
2023/02/19 09:19:30.607   16.785929528   82.203407164    58.5949   1  25   0.0020   0.0030   0.0078  -0.0002   0.0025  -0.0008  -0.00    3.8
2023/02/19 09:19:32.207   16.786083980   82.203226004    57.8472   1  25   0.0023   0.0030   0.0083  -0.0002   0.0025  -0.0016  -0.00   24.6
2023/02/19 09:19:33.847   16.786217000   82.203017483    56.1870   1  25   0.0021   0.0030   0.0075  -0.0006   0.0024  -0.0012  -0.00   23.9
2023/02/19 09:19:35.426   16.786325644   82.202798881    55.3773   1  25   0.0022   0.0031   0.0079   0.0004   0.0025  -0.0013  -0.00   59.8
2023/02/19 09:19:36.926   16.786428087   82.202588700    55.2542   1  25   0.0017   0.0027   0.0073  -0.0003   0.0022  -0.0007  -0.00   39.7
2023/02/19 09:19:38.546   16.786544517   82.202363624    54.9465   1  25   0.0021   0.0030   0.0080  -0.0003   0.0028  -0.0012  -0.00   64.9
2023/02/19 09:19:40.047   16.786663060   82.202157226    54.6715   1  25   0.0021   0.0031   0.0083  -0.0004   0.0027  -0.0013  -0.00  100.2
2023/02/19 09:19:41.586   16.786792516   82.201949361    55.2336   1  25   0.0017   0.0027   0.0072  -0.0002   0.0022  -0.0008  -0.00   64.5
2023/02/19 09:19:43.086   16.786916974   82.201741276    55.3331   1  25   0.0017   0.0027   0.0072  -0.0002   0.0022  -0.0008  -0.00   72.4
2023/02/19 09:19:44.586   16.787044380   82.201529099    55.5746   1  25   0.0017   0.0027   0.0073  -0.0002   0.0022  -0.0007  -0.00   78.9
2023/02/19 09:19:46.007   16.787165610   82.201327058    55.9747   1  25   0.0017   0.0027   0.0073  -0.0003   0.0022  -0.0007  -0.00   86.2
2023/02/19 09:19:47.466   16.787295648   82.201124482    56.6416   1  25   0.0017   0.0027   0.0073  -0.0003   0.0022  -0.0008  -0.00   92.3
2023/02/19 09:19:48.926   16.787425916   82.200923383    57.0347   1  25   0.0017   0.0027   0.0072  -0.0003   0.0022  -0.0008  -0.00   97.8
2023/02/19 09:19:50.426   16.787557388   82.200712863    57.0744   1  25   0.0019   0.0028   0.0073  -0.0004   0.0022  -0.0005  -0.00  174.6
2023/02/19 09:19:51.887   16.787686954   82.200509738    57.6136   1  25   0.0017   0.0027   0.0073  -0.0003   0.0022  -0.0008  -0.00  107.8
2023/02/19 09:19:53.366   16.787811726   82.200302190    57.9531   1  25   0.0017   0.0027   0.0073  -0.0003   0.0022  -0.0007  -0.00  112.7
2023/02/19 09:19:54.826   16.787936456   82.200094213    58.1520   1  25   0.0017   0.0027   0.0073  -0.0003   0.0022  -0.0007  -0.00  117.5
2023/02/19 09:19:56.247   16.788061011   82.199891762    58.5619   1  24   0.0017   0.0027   0.0073  -0.0004   0.0022  -0.0008  -0.00  123.5
2023/02/19 09:19:57.706   16.788182169   82.199674596    58.4545   1  25   0.0017   0.0028   0.0073  -0.0005   0.0022  -0.0006  -0.00  126.3
2023/02/19 09:19:59.126   16.788304167   82.199460329    58.8184   1  25   0.0017   0.0027   0.0073  -0.0003   0.0022  -0.0007  -0.00  130.2
2023/02/19 09:20:00.546   16.788434923   82.199255571    60.0870   1  25   0.0017   0.0027   0.0074  -0.0004   0.0022  -0.0008  -0.00  133.6
2023/02/19 09:20:01.967   16.788559379   82.199057683    61.1001   1  25   0.0018   0.0027   0.0076  -0.0005   0.0022  -0.0008  -0.00  139.6
2023/02/19 09:20:03.506   16.788689377   82.198842053    60.9542   1  25   0.0022   0.0031   0.0078   0.0005   0.0029   0.0007  -0.00    3.7
2023/02/19 09:20:04.927   16.788807805   82.198641741    61.1628   1  25   0.0017   0.0027   0.0073  -0.0003   0.0022  -0.0007  -0.00    7.0
2023/02/19 09:20:06.465   16.788937512   82.198429025    61.1873   1  25   0.0022   0.0030   0.0078   0.0008   0.0025  -0.0005  -0.00   22.3
2023/02/19 09:20:07.926   16.789067445   82.198233585    61.4538   1  25   0.0020   0.0030   0.0079  -0.0005   0.0027  -0.0013  -0.00   24.0
2023/02/19 09:20:09.506   16.789198607   82.198022838    61.0583   1  25   0.0021   0.0030   0.0080  -0.0004   0.0026  -0.0012  -0.00   25.8
2023/02/19 09:20:11.007   16.789316758   82.197819534    60.1458   1  25   0.0023   0.0031   0.0083   0.0006   0.0028  -0.0011  -0.00   57.1
2023/02/19 09:20:12.586   16.789443288   82.197604890    60.1488   1  25   0.0019   0.0029   0.0079  -0.0006   0.0026  -0.0010  -0.00   70.3
2023/02/19 09:20:14.087   16.789562342   82.197405261    59.9435   1  25   0.0022   0.0031   0.0082   0.0005   0.0028  -0.0006  -0.00   94.8
2023/02/19 09:20:15.706   16.789686332   82.197189463    59.7549   1  25   0.0021   0.0031   0.0080  -0.0005   0.0028  -0.0011  -0.00   46.1
2023/02/19 09:20:17.246   16.789800689   82.196984503    59.3958   1  25   0.0021   0.0030   0.0076  -0.0004   0.0026  -0.0007  -0.00   54.4
2023/02/19 09:20:18.866   16.789929330   82.196777176    58.9611   1  25   0.0022   0.0031   0.0079   0.0005   0.0029   0.0002  -0.00    8.0
2023/02/19 09:20:20.486   16.790057645   82.196571947    57.6707   1  25   0.0020   0.0030   0.0078  -0.0006   0.0024  -0.0012  -0.00   12.3
2023/02/19 09:20:22.086   16.790174005   82.196352586    56.1459   1  25   0.0022   0.0031   0.0082   0.0008   0.0026   0.0001  -0.00   19.2
2023/02/19 09:20:23.586   16.790291871   82.196145921    56.3201   1  25   0.0020   0.0029   0.0074   0.0006   0.0023   0.0007  -0.00   23.4
2023/02/19 09:20:25.126   16.790427619   82.195943143    56.8240   1  25   0.0021   0.0030   0.0079  -0.0006   0.0023  -0.0013  -0.00   24.4
2023/02/19 09:20:26.647   16.790555564   82.195731254    55.9395   1  25   0.0018   0.0028   0.0074   0.0001   0.0022  -0.0004  -0.00   64.5
2023/02/19 09:20:28.106   16.790681200   82.195522062    55.3353   1  25   0.0017   0.0027   0.0073  -0.0004   0.0022  -0.0006  -0.00   69.7
2023/02/19 09:20:29.526   16.790806903   82.195318970    55.5776   1  25   0.0017   0.0027   0.0073  -0.0004   0.0022  -0.0006  -0.00    3.3
2023/02/19 09:20:31.046   16.790937341   82.195103169    55.2171   1  25   0.0022   0.0031   0.0080   0.0004   0.0025  -0.0012  -0.00   15.1
2023/02/19 09:20:32.466   16.791059901   82.194903002    54.7323   1  25   0.0020   0.0029   0.0080  -0.0008   0.0025  -0.0005  -0.00   28.2
2023/02/19 09:20:33.926   16.791185936   82.194697644    55.7603   1  25   0.0017   0.0028   0.0074  -0.0005   0.0021  -0.0003  -0.00   89.8
2023/02/19 09:20:35.447   16.791320074   82.194488113    57.6063   1  25   0.0022   0.0031   0.0082   0.0005   0.0028  -0.0006  -0.00    3.0
2023/02/19 09:20:36.946   16.791447877   82.194281163    58.2086   1  25   0.0021   0.0030   0.0076   0.0008   0.0025   0.0010  -0.00   18.0
2023/02/19 09:20:38.446   16.791585062   82.194073400    58.4539   1  25   0.0022   0.0031   0.0083   0.0005   0.0028  -0.0006  -0.00   35.4
2023/02/19 09:20:39.886   16.791708581   82.193862725    56.8904   1  25   0.0017   0.0027   0.0072  -0.0005   0.0021  -0.0009  -0.00   18.4
2023/02/19 09:20:41.266   16.791823599   82.193651747    55.6372   1  25   0.0017   0.0027   0.0073  -0.0003   0.0022  -0.0007  -0.00   23.4
2023/02/19 09:20:42.647   16.791940359   82.193443050    55.4098   1  25   0.0020   0.0029   0.0077  -0.0006   0.0022  -0.0012  -0.00   56.1
2023/02/19 09:20:44.066   16.792060557   82.193233265    56.2966   1  25   0.0021   0.0030   0.0081  -0.0005   0.0028   0.0005  -0.00   95.5
2023/02/19 09:20:45.526   16.792182948   82.193024567    56.8285   1  25   0.0020   0.0029   0.0075  -0.0008   0.0024  -0.0011  -0.00   57.3
2023/02/19 09:20:46.986   16.792303845   82.192812958    57.1589   1  25   0.0017   0.0027   0.0073  -0.0003   0.0022  -0.0007  -0.00   43.2
2023/02/19 09:20:48.406   16.792428527   82.192606734    57.4801   1  25   0.0020   0.0029   0.0075  -0.0008   0.0024  -0.0011  -0.00   49.7
2023/02/19 09:20:49.866   16.792558660   82.192399534    57.9677   1  25   0.0021   0.0030   0.0076  -0.0003   0.0027  -0.0008  -0.00  106.3
2023/02/19 09:20:51.287   16.792688319   82.192203800    58.3791   1  25   0.0020   0.0029   0.0076   0.0006   0.0025   0.0007  -0.00  142.3
2023/02/19 09:20:52.785   16.792827009   82.192000927    58.8106   1  25   0.0017   0.0027   0.0072  -0.0005   0.0021  -0.0009  -0.00   22.2
2023/02/19 09:20:54.246   16.792956008   82.191800826    58.9633   1  25   0.0017   0.0027   0.0073  -0.0005   0.0020  -0.0010  -0.00   28.3
2023/02/19 09:20:55.786   16.793070646   82.191587317    59.4517   1  25   0.0017   0.0027   0.0072  -0.0006   0.0020  -0.0007  -0.00   33.2
2023/02/19 09:20:57.366   16.793181784   82.191374391    59.1476   1  25   0.0017   0.0027   0.0073  -0.0003   0.0022  -0.0007  -0.00   79.9
2023/02/19 09:20:59.046   16.793317115   82.191163472    58.9347   1  25   0.0021   0.0030   0.0077   0.0007   0.0024   0.0011  -0.00   86.4
2023/02/19 09:21:00.626   16.793447684   82.190970375    58.3529   1  25   0.0023   0.0030   0.0083  -0.0002   0.0025  -0.0016  -0.00   83.7
2023/02/19 09:21:02.287   16.793572192   82.190757535    57.5123   1  25   0.0020   0.0029   0.0080  -0.0009   0.0022  -0.0017  -0.00   59.4
2023/02/19 09:21:03.927   16.793684904   82.190542619    56.5016   1  25   0.0020   0.0029   0.0077  -0.0007   0.0023  -0.0013  -0.00  215.2
2023/02/19 09:21:05.606   16.793793680   82.190323019    55.1316   1  26   0.0020   0.0029   0.0077  -0.0008   0.0022  -0.0013  -0.00   55.2
2023/02/19 09:21:07.247   16.793884006   82.190100894    53.8127   1  26   0.0020   0.0029   0.0078  -0.0004   0.0024  -0.0010  -0.00  114.0
2023/02/19 09:21:08.926   16.793980852   82.189875752    52.8725   1  26   0.0019   0.0030   0.0075  -0.0005   0.0025  -0.0010  -0.00    3.4
2023/02/19 09:21:10.647   16.794076672   82.189650028    52.7518   1  26   0.0021   0.0030   0.0082  -0.0007   0.0025  -0.0014  -0.00    8.4
2023/02/19 09:21:12.327   16.794181209   82.189430020    53.2145   1  26   0.0020   0.0028   0.0074  -0.0009   0.0022  -0.0011  -0.00   18.2
2023/02/19 09:21:14.006   16.794285383   82.189202753    53.2900   1  26   0.0022   0.0030   0.0079  -0.0003   0.0023  -0.0014  -0.00    4.5
2023/02/19 09:21:15.586   16.794384398   82.188984895    53.3336   1  25   0.0017   0.0027   0.0074  -0.0003   0.0022  -0.0007  -0.00  181.6
2023/02/19 09:21:17.166   16.794490762   82.188768754    54.7622   1  25   0.0016   0.0026   0.0072  -0.0006   0.0019  -0.0010  -0.00    3.8
2023/02/19 09:21:18.746   16.794593724   82.188547808    54.9841   1  25   0.0017   0.0027   0.0072  -0.0005   0.0021  -0.0009  -0.00    9.3
2023/02/19 09:21:20.288   16.794700056   82.188326784    54.4724   1  25   0.0018   0.0028   0.0074  -0.0005   0.0022  -0.0007  -0.00   20.1
2023/02/19 09:21:21.826   16.794802059   82.188104984    54.7661   1  26   0.0020   0.0028   0.0075  -0.0009   0.0022  -0.0011  -0.00   36.7
2023/02/19 09:21:23.366   16.794896696   82.187883401    55.3499   1  25   0.0016   0.0026   0.0072  -0.0006   0.0019  -0.0010  -0.00   24.2
2023/02/19 09:21:24.906   16.794999107   82.187660304    56.3175   1  25   0.0017   0.0027   0.0074  -0.0003   0.0022  -0.0007  -0.00   29.2
2023/02/19 09:21:26.447   16.795108221   82.187437459    57.1573   1  25   0.0020   0.0029   0.0075  -0.0007   0.0025  -0.0010  -0.00   48.2
2023/02/19 09:21:27.946   16.795221075   82.187220997    57.4790   1  25   0.0017   0.0027   0.0073  -0.0003   0.0022  -0.0007  -0.00   37.9
2023/02/19 09:21:29.406   16.795334137   82.187010488    58.0829   1  26   0.0018   0.0026   0.0072  -0.0006   0.0019  -0.0009  -0.00   32.5
2023/02/19 09:21:30.946   16.795442493   82.186782088    57.7337   1  26   0.0016   0.0026   0.0072  -0.0006   0.0019  -0.0010  -0.00   36.1
2023/02/19 09:21:32.406   16.795538193   82.186560897    57.8373   1  25   0.0017   0.0027   0.0073  -0.0005   0.0021  -0.0009  -0.00   40.0
2023/02/19 09:21:33.905   16.795642065   82.186333752    58.2478   1  25   0.0017   0.0027   0.0073  -0.0003   0.0023  -0.0007  -0.00   54.1
2023/02/19 09:21:35.326   16.795742530   82.186118804    58.3265   1  25   0.0017   0.0027   0.0072  -0.0005   0.0021  -0.0009  -0.00   57.7
2023/02/19 09:21:36.826   16.795846224   82.185891056    58.6031   1  25   0.0019   0.0028   0.0074  -0.0003   0.0022   0.0002  -0.00   74.8
2023/02/19 09:21:38.286   16.795949357   82.185674853    59.5403   1  25   0.0018   0.0028   0.0074  -0.0006   0.0022   0.0004  -0.00   65.3
2023/02/19 09:21:39.826   16.796053314   82.185456165    60.4407   1  25   0.0020   0.0028   0.0074   0.0006   0.0023   0.0007  -0.00   69.3
2023/02/19 09:21:41.407   16.796158295   82.185235003    59.5705   1  25   0.0021   0.0030   0.0076   0.0008   0.0026   0.0010  -0.00   73.2
2023/02/19 09:21:42.986   16.796265625   82.185016683    59.1583   1  25   0.0017   0.0027   0.0074  -0.0004   0.0022  -0.0006  -0.00   75.5
2023/02/19 09:21:44.566   16.796372082   82.184802023    57.8251   1  25   0.0017   0.0028   0.0074  -0.0004   0.0022  -0.0006  -0.00   78.6
2023/02/19 09:21:46.185   16.796479078   82.184581061    57.6305   1  25   0.0021   0.0031   0.0080  -0.0003   0.0026  -0.0009  -0.00  165.4
2023/02/19 09:21:47.766   16.796576269   82.184365008    57.5867   1  25   0.0017   0.0027   0.0073  -0.0005   0.0021  -0.0008  -0.00   84.0
2023/02/19 09:21:49.426   16.796672955   82.184138227    56.9388   1  25   0.0021   0.0031   0.0081   0.0006   0.0028   0.0006  -0.00   87.4
2023/02/19 09:21:51.046   16.796768804   82.183914284    55.8815   1  25   0.0021   0.0031   0.0079  -0.0003   0.0026  -0.0007  -0.00   92.1
2023/02/19 09:21:52.666   16.796880936   82.183689964    56.5418   1  25   0.0021   0.0031   0.0077  -0.0004   0.0027  -0.0007  -0.00  139.2
2023/02/19 09:21:54.207   16.796988467   82.183475829    56.8736   1  25   0.0021   0.0031   0.0077  -0.0003   0.0027  -0.0007  -0.00  119.9
2023/02/19 09:21:55.806   16.797091010   82.183249964    56.3962   1  25   0.0020   0.0031   0.0079  -0.0002   0.0026  -0.0007  -0.00   99.1
2023/02/19 09:21:57.407   16.797193432   82.183023888    57.0656   1  25   0.0020   0.0029   0.0077  -0.0008   0.0025  -0.0012  -0.00  101.1
2023/02/19 09:21:58.967   16.797292916   82.182803835    57.8470   1  25   0.0017   0.0027   0.0074  -0.0004   0.0023  -0.0006  -0.00  101.5
2023/02/19 09:22:00.527   16.797396840   82.182583305    58.8925   1  25   0.0018   0.0027   0.0074  -0.0004   0.0022  -0.0003  -0.00  103.1
2023/02/19 09:22:02.106   16.797503584   82.182362497    59.8917   1  25   0.0018   0.0028   0.0075  -0.0004   0.0022  -0.0004  -0.00  104.9
2023/02/19 09:22:03.687   16.797612485   82.182149094    60.4055   1  25   0.0021   0.0030   0.0078  -0.0006   0.0026  -0.0004  -0.00  432.4
2023/02/19 09:22:05.287   16.797719680   82.181933454    59.7955   1  25   0.0020   0.0031   0.0079  -0.0002   0.0029   0.0005  -0.00    3.5
2023/02/19 09:22:06.926   16.797828001   82.181706149    59.4884   1  25   0.0019   0.0028   0.0075  -0.0003   0.0022  -0.0002  -0.00    3.4
2023/02/19 09:22:08.487   16.797935723   82.181496182    60.7132   1  25   0.0020   0.0029   0.0076  -0.0008   0.0025  -0.0010  -0.00   12.8
2023/02/19 09:22:10.167   16.798048960   82.181275490    60.6968   1  25   0.0020   0.0028   0.0075  -0.0009   0.0023  -0.0012  -0.00   19.3
2023/02/19 09:22:11.806   16.798154496   82.181054937    58.5584   1  26   0.0020   0.0029   0.0078  -0.0008   0.0023  -0.0013  -0.00   18.3
2023/02/19 09:22:13.386   16.798238994   82.180832786    56.1820   1  26   0.0017   0.0026   0.0072  -0.0006   0.0020  -0.0010  -0.00   17.9
2023/02/19 09:22:15.046   16.798330158   82.180603261    54.7819   1  26   0.0020   0.0030   0.0079  -0.0006   0.0024  -0.0011  -0.00   32.3
2023/02/19 09:22:16.687   16.798418355   82.180378994    53.5470   1  26   0.0019   0.0028   0.0078  -0.0009   0.0025  -0.0011  -0.00   26.4
2023/02/19 09:22:18.366   16.798522248   82.180156042    52.8330   1  25   0.0020   0.0030   0.0080   0.0004   0.0026  -0.0005  -0.00   29.2
2023/02/19 09:22:20.047   16.798630807   82.179937930    52.2891   1  26   0.0020   0.0029   0.0078  -0.0008   0.0022  -0.0012  -0.00    6.8
2023/02/19 09:22:21.726   16.798733338   82.179716446    51.4748   1  26   0.0017   0.0027   0.0072  -0.0005   0.0019  -0.0010  -0.00    8.6
2023/02/19 09:22:23.345   16.798835666   82.179501173    51.4957   1  26   0.0019   0.0028   0.0073  -0.0006   0.0021  -0.0007  -0.00   18.8
2023/02/19 09:22:24.966   16.798946549   82.179280213    52.0376   1  26   0.0016   0.0026   0.0072  -0.0006   0.0020  -0.0010  -0.00   14.5
2023/02/19 09:22:26.546   16.799049779   82.179057275    53.4508   1  26   0.0016   0.0026   0.0072  -0.0006   0.0020  -0.0010  -0.00   17.7
2023/02/19 09:22:28.086   16.799144661   82.178833235    54.8439   1  25   0.0017   0.0028   0.0074  -0.0005   0.0022  -0.0005  -0.00   48.0
2023/02/19 09:22:29.585   16.799252402   82.178613061    55.3653   1  25   0.0017   0.0027   0.0073  -0.0005   0.0021  -0.0009  -0.00   50.4
2023/02/19 09:22:31.046   16.799363292   82.178395130    55.5408   1  25   0.0017   0.0028   0.0074  -0.0003   0.0023  -0.0007  -0.00   53.4
2023/02/19 09:22:32.506   16.799470813   82.178171320    56.0963   1  25   0.0017   0.0028   0.0075  -0.0005   0.0022  -0.0003  -0.00   55.9
2023/02/19 09:22:33.926   16.799579908   82.177953034    57.1080   1  25   0.0017   0.0028   0.0074  -0.0004   0.0022  -0.0006  -0.00  193.4
2023/02/19 09:22:35.346   16.799691711   82.177732790    58.0894   1  25   0.0018   0.0027   0.0074  -0.0006   0.0021  -0.0008  -0.00   93.8
2023/02/19 09:22:36.686   16.799790108   82.177516210    58.5044   1  25   0.0017   0.0027   0.0073  -0.0005   0.0021  -0.0008  -0.00   96.0
2023/02/19 09:22:38.106   16.799896014   82.177289612    61.1772   1  25   0.0017   0.0028   0.0074  -0.0006   0.0022  -0.0004  -0.00    5.1
2023/02/19 09:22:39.526   16.800002011   82.177081026    63.1103   1  25   0.0018   0.0027   0.0074  -0.0006   0.0021  -0.0008  -0.00    8.3
2023/02/19 09:22:41.146   16.800107614   82.176850975    63.6878   1  25   0.0017   0.0027   0.0073  -0.0005   0.0021  -0.0008  -0.00   11.8
2023/02/19 09:22:42.727   16.800204627   82.176628801    63.5233   1  25   0.0017   0.0028   0.0075  -0.0004   0.0022  -0.0003  -0.00   15.4
2023/02/19 09:22:44.286   16.800309618   82.176415107    63.8386   1  25   0.0019   0.0028   0.0075  -0.0003   0.0023  -0.0000  -0.00   19.4
2023/02/19 09:22:45.927   16.800423042   82.176200916    64.3229   1  25   0.0019   0.0028   0.0075  -0.0002   0.0022   0.0003  -0.00  197.8
2023/02/19 09:22:47.606   16.800529386   82.175988099    63.7770   1  25   0.0023   0.0031   0.0085   0.0005   0.0028  -0.0009  -0.00  199.8
2023/02/19 09:22:49.326   16.800629251   82.175767161    62.1197   1  26   0.0020   0.0029   0.0082  -0.0008   0.0024  -0.0016  -0.00   23.8
2023/02/19 09:22:51.065   16.800727988   82.175538223    60.4227   1  25   0.0020   0.0030   0.0080   0.0003   0.0026  -0.0005  -0.00  198.9
2023/02/19 09:22:52.726   16.800840504   82.175327063    58.5905   1  25   0.0021   0.0030   0.0076  -0.0007   0.0025  -0.0009  -0.00   33.1
2023/02/19 09:22:54.466   16.800934717   82.175104928    57.0217   1  26   0.0020   0.0029   0.0081  -0.0006   0.0024  -0.0016  -0.00    4.3
2023/02/19 09:22:56.246   16.801022278   82.174879642    55.8030   1  25   0.0022   0.0030   0.0082   0.0001   0.0026  -0.0012  -0.00    8.6
2023/02/19 09:22:58.105   16.801122140   82.174653381    53.8377   1  26   0.0020   0.0030   0.0079  -0.0006   0.0025  -0.0010  -0.00   14.3
2023/02/19 09:22:59.926   16.801222177   82.174435568    51.6803   1  26   0.0021   0.0030   0.0080  -0.0002   0.0026  -0.0006  -0.00   19.4
2023/02/19 09:23:01.745   16.801319049   82.174215222    49.8430   1  26   0.0020   0.0030   0.0079  -0.0006   0.0025  -0.0011  -0.00   19.3
2023/02/19 09:23:03.646   16.801425286   82.173987566    48.7324   1  26   0.0020   0.0028   0.0075  -0.0009   0.0023  -0.0011  -0.00   29.8
2023/02/19 09:23:05.486   16.801522362   82.173770982    48.5183   1  25   0.0021   0.0031   0.0084  -0.0003   0.0028  -0.0011  -0.00   27.3
2023/02/19 09:23:07.346   16.801641854   82.173559150    49.7469   1  25   0.0021   0.0030   0.0081  -0.0002   0.0026  -0.0010  -0.00   31.3
2023/02/19 09:23:09.166   16.801743768   82.173339739    51.7386   1  26   0.0019   0.0029   0.0079  -0.0007   0.0025  -0.0011  -0.00   44.1
2023/02/19 09:23:10.985   16.801840419   82.173113581    54.6565   1  26   0.0022   0.0030   0.0080  -0.0003   0.0024  -0.0015  -0.00   49.1
2023/02/19 09:23:12.766   16.801938811   82.172888638    56.7201   1  26   0.0022   0.0030   0.0083  -0.0002   0.0026  -0.0014  -0.00   52.6
2023/02/19 09:23:14.545   16.802038505   82.172661354    57.4056   1  26   0.0020   0.0029   0.0077  -0.0008   0.0022  -0.0014  -0.00   44.5
2023/02/19 09:23:16.246   16.802140953   82.172442516    59.4315   1  25   0.0020   0.0029   0.0075   0.0005   0.0024   0.0004  -0.00   48.0
2023/02/19 09:23:17.986   16.802257924   82.172227721    61.2868   1  25   0.0020   0.0029   0.0076  -0.0008   0.0025  -0.0011  -0.00   64.1
2023/02/19 09:23:19.766   16.802370367   82.172018371    60.5408   1  25   0.0023   0.0031   0.0081   0.0006   0.0029  -0.0009  -0.00   92.7
2023/02/19 09:23:21.585   16.802476903   82.171798352    58.9345   1  26   0.0019   0.0029   0.0078  -0.0006   0.0022  -0.0012  -0.00   53.5
2023/02/19 09:23:23.407   16.802578090   82.171569657    57.6357   1  26   0.0020   0.0028   0.0075  -0.0009   0.0024  -0.0011  -0.00   56.5
2023/02/19 09:23:25.145   16.802675185   82.171351618    57.4230   1  25   0.0019   0.0029   0.0080  -0.0005   0.0027  -0.0005  -0.00   81.4
2023/02/19 09:23:26.926   16.802789839   82.171133011    56.6962   1  25   0.0021   0.0031   0.0080   0.0007   0.0029   0.0007  -0.00   65.3
2023/02/19 09:23:28.646   16.802907541   82.170921877    57.0305   1  25   0.0021   0.0031   0.0079  -0.0004   0.0028  -0.0010  -0.00   84.2
2023/02/19 09:23:30.367   16.803022048   82.170704660    56.8481   1  25   0.0020   0.0030   0.0081   0.0004   0.0026  -0.0005  -0.00  181.9
2023/02/19 09:23:32.046   16.803138341   82.170495703    57.1844   1  25   0.0021   0.0031   0.0080  -0.0002   0.0027  -0.0007  -0.00  181.7
2023/02/19 09:23:33.766   16.803252948   82.170283982    57.2519   1  25   0.0017   0.0028   0.0075  -0.0004   0.0023  -0.0003  -0.00  177.4
2023/02/19 09:23:35.486   16.803367948   82.170069305    57.0766   1  25   0.0017   0.0028   0.0075  -0.0004   0.0023  -0.0006  -0.00    4.0
2023/02/19 09:23:37.226   16.803491257   82.169851806    57.2981   1  25   0.0023   0.0032   0.0087   0.0005   0.0029  -0.0013  -0.00   12.0
2023/02/19 09:23:38.847   16.803602704   82.169641977    57.0436   1  25   0.0019   0.0028   0.0078  -0.0005   0.0024  -0.0007  -0.00  176.4
2023/02/19 09:23:40.487   16.803721729   82.169429120    57.2080   1  25   0.0023   0.0031   0.0083   0.0005   0.0030  -0.0011  -0.00  221.2
2023/02/19 09:23:42.126   16.803833944   82.169209426    57.0758   1  25   0.0021   0.0030   0.0080  -0.0006   0.0027  -0.0012  -0.00    4.6
2023/02/19 09:23:43.726   16.803942561   82.168988982    57.0273   1  25   0.0017   0.0028   0.0075  -0.0003   0.0023  -0.0006  -0.00    5.2
2023/02/19 09:23:45.305   16.804058007   82.168775854    57.4046   1  25   0.0018   0.0028   0.0075   0.0001   0.0023  -0.0004  -0.00    8.0
2023/02/19 09:23:47.046   16.804185287   82.168547151    57.5666   1  26   0.0018   0.0027   0.0074  -0.0008   0.0020  -0.0011  -0.00   13.4
2023/02/19 09:23:48.526   16.804285121   82.168352284    58.2079   1  25   0.0019   0.0028   0.0075  -0.0004   0.0024  -0.0003  -0.00   13.8
2023/02/19 09:23:50.225   16.804404747   82.168131786    57.8512   1  25   0.0017   0.0028   0.0075  -0.0005   0.0023  -0.0005  -0.00   16.5
2023/02/19 09:23:51.966   16.804529376   82.167900872    57.4963   1  25   0.0019   0.0030   0.0084  -0.0006   0.0028  -0.0011  -0.00   23.8
2023/02/19 09:23:53.386   16.804630173   82.167707591    57.0689   1  25   0.0016   0.0026   0.0073  -0.0006   0.0020  -0.0010  -0.00   21.3
2023/02/19 09:23:54.926   16.804743256   82.167496527    57.0131   1  25   0.0016   0.0027   0.0071  -0.0004   0.0023  -0.0011  -0.00   23.9
2023/02/19 09:23:56.545   16.804864255   82.167276743    57.0343   1  25   0.0019   0.0029   0.0077  -0.0008   0.0026  -0.0010  -0.00   32.7
2023/02/19 09:23:58.086   16.804978388   82.167070197    57.5069   1  25   0.0017   0.0028   0.0075  -0.0003   0.0023  -0.0006  -0.00   28.9
2023/02/19 09:23:59.705   16.805098920   82.166855166    58.4620   1  25   0.0020   0.0030   0.0078  -0.0005   0.0027  -0.0005  -0.00   54.5
2023/02/19 09:24:01.286   16.805214327   82.166642120    58.6266   1  26   0.0021   0.0029   0.0078  -0.0006   0.0026  -0.0011  -0.00   66.8
2023/02/19 09:24:02.905   16.805326024   82.166419053    59.2767   1  25   0.0020   0.0028   0.0076  -0.0009   0.0024  -0.0011  -0.00   44.5
2023/02/19 09:24:04.487   16.805417760   82.166202094    60.0886   1  26   0.0020   0.0028   0.0078  -0.0010   0.0024  -0.0016  -0.00   57.9
2023/02/19 09:24:06.185   16.805490067   82.165963443    59.4306   1  26   0.0019   0.0028   0.0075  -0.0009   0.0022  -0.0013  -0.00   60.0
2023/02/19 09:24:07.806   16.805555107   82.165731667    58.7053   1  26   0.0020   0.0030   0.0079  -0.0006   0.0025  -0.0011  -0.00   72.3
2023/02/19 09:24:09.465   16.805628743   82.165495419    59.0195   1  26   0.0020   0.0028   0.0077  -0.0008   0.0022  -0.0012  -0.00   45.4
2023/02/19 09:24:11.046   16.805696224   82.165265776    58.6030   1  26   0.0021   0.0028   0.0078  -0.0009   0.0024  -0.0016  -0.00   47.1
2023/02/19 09:24:12.665   16.805773554   82.165027070    58.2155   1  26   0.0021   0.0030   0.0081  -0.0003   0.0027  -0.0007  -0.00   81.2
2023/02/19 09:24:14.207   16.805853297   82.164800515    58.9815   1  26   0.0020   0.0028   0.0077  -0.0009   0.0021  -0.0015  -0.00   83.8
2023/02/19 09:24:15.786   16.805933978   82.164568502    59.6473   1  26   0.0024   0.0037   0.0103  -0.0009   0.0029  -0.0013  -0.00   52.1
2023/02/19 09:24:17.367   16.806012963   82.164338454    59.7381   1  26   0.0016   0.0026   0.0073  -0.0006   0.0020  -0.0010  -0.00   61.5
2023/02/19 09:24:18.985   16.806099156   82.164111246    58.8272   1  26   0.0016   0.0026   0.0073  -0.0006   0.0021  -0.0010  -0.00   55.5
2023/02/19 09:24:20.566   16.806184029   82.163889440    57.1438   1  26   0.0016   0.0026   0.0072  -0.0006   0.0021  -0.0011  -0.00   57.2
2023/02/19 09:24:22.225   16.806262106   82.163652071    55.7731   1  26   0.0022   0.0029   0.0082  -0.0006   0.0025  -0.0015  -0.00   85.7
2023/02/19 09:24:23.806   16.806333420   82.163425369    55.9759   1  26   0.0020   0.0029   0.0078  -0.0008   0.0025  -0.0013  -0.00   74.8
2023/02/19 09:24:25.465   16.806408706   82.163188072    55.8625   1  26   0.0021   0.0029   0.0079  -0.0006   0.0023  -0.0015  -0.00   79.2
2023/02/19 09:24:27.086   16.806489679   82.162956134    55.7877   1  25   0.0019   0.0028   0.0075  -0.0009   0.0023  -0.0013  -0.00   78.0
2023/02/19 09:24:28.705   16.806563662   82.162723088    56.1707   1  25   0.0019   0.0029   0.0081  -0.0004   0.0027  -0.0001  -0.00   91.5
2023/02/19 09:24:30.326   16.806646258   82.162491951    56.1900   1  26   0.0020   0.0029   0.0079  -0.0007   0.0026  -0.0014  -0.00   76.4
2023/02/19 09:24:31.945   16.806738775   82.162265441    56.5815   1  25   0.0020   0.0029   0.0079  -0.0009   0.0026  -0.0014  -0.00  117.2
2023/02/19 09:24:33.526   16.806825457   82.162039998    56.8372   1  25   0.0018   0.0027   0.0074  -0.0006   0.0022  -0.0010  -0.00   97.9
2023/02/19 09:24:35.105   16.806904979   82.161806094    57.0315   1  25   0.0019   0.0028   0.0076  -0.0004   0.0023   0.0003  -0.00   89.5
2023/02/19 09:24:36.646   16.806993983   82.161577204    58.7201   1  25   0.0020   0.0028   0.0077  -0.0009   0.0024  -0.0013  -0.00   92.0
2023/02/19 09:24:38.226   16.807078492   82.161342502    59.3180   1  25   0.0020   0.0029   0.0078  -0.0008   0.0022  -0.0014  -0.00  121.5
2023/02/19 09:24:39.726   16.807144781   82.161111810    59.0661   1  25   0.0017   0.0027   0.0075  -0.0005   0.0021  -0.0007  -0.00   77.5
2023/02/19 09:24:41.306   16.807220002   82.160872580    58.1972   1  25   0.0019   0.0028   0.0076  -0.0007   0.0024  -0.0011  -0.00  104.2
2023/02/19 09:24:42.766   16.807300450   82.160649753    57.5577   1  25   0.0017   0.0027   0.0074  -0.0005   0.0022  -0.0008  -0.00   80.8
2023/02/19 09:24:44.306   16.807381865   82.160415465    57.0832   1  25   0.0017   0.0027   0.0076  -0.0006   0.0020  -0.0003  -0.00  119.7
2023/02/19 09:24:45.806   16.807459568   82.160189064    57.1465   1  25   0.0019   0.0028   0.0077  -0.0010   0.0024  -0.0013  -0.00  197.0
2023/02/19 09:24:47.385   16.807536782   82.159950775    57.3649   1  25   0.0017   0.0027   0.0074  -0.0005   0.0022  -0.0008  -0.00  122.2
2023/02/19 09:24:48.886   16.807612749   82.159724817    57.2246   1  25   0.0017   0.0027   0.0075  -0.0005   0.0022  -0.0007  -0.00  123.5
2023/02/19 09:24:50.465   16.807700067   82.159488420    57.1918   1  25   0.0020   0.0028   0.0077  -0.0009   0.0024  -0.0011  -0.00  201.8
2023/02/19 09:24:51.926   16.807782472   82.159268214    57.6216   1  25   0.0017   0.0027   0.0075  -0.0005   0.0022  -0.0008  -0.00  125.9
2023/02/19 09:24:53.506   16.807867498   82.159033967    58.3244   1  25   0.0020   0.0029   0.0077  -0.0007   0.0026  -0.0009  -0.00  172.9
2023/02/19 09:24:55.046   16.807953024   82.158814527    59.3217   1  25   0.0019   0.0028   0.0075  -0.0003   0.0021  -0.0008  -0.00  176.3
2023/02/19 09:24:56.726   16.808036457   82.158577119    59.7903   1  25   0.0020   0.0030   0.0080  -0.0006   0.0025  -0.0011  -0.00    3.9
2023/02/19 09:24:58.407   16.808105957   82.158342219    59.9136   1  25   0.0020   0.0030   0.0080   0.0003   0.0024  -0.0011  -0.00    6.6
2023/02/19 09:25:00.086   16.808178810   82.158110985    59.5602   1  25   0.0022   0.0030   0.0081  -0.0004   0.0024  -0.0014  -0.00  212.6
2023/02/19 09:25:01.745   16.808262214   82.157884945    58.1990   1  25   0.0020   0.0029   0.0078  -0.0008   0.0023  -0.0014  -0.00  193.8
2023/02/19 09:25:03.447   16.808349977   82.157650465    57.0832   1  25   0.0022   0.0030   0.0081  -0.0004   0.0025  -0.0014  -0.00  149.6
2023/02/19 09:25:05.086   16.808425055   82.157421596    56.2783   1  25   0.0018   0.0028   0.0076  -0.0005   0.0020  -0.0007  -0.00  180.3
2023/02/19 09:25:06.766   16.808505211   82.157184762    55.2828   1  25   0.0018   0.0027   0.0075  -0.0003   0.0022  -0.0007  -0.00  136.9
2023/02/19 09:25:08.327   16.808608703   82.156969140    54.6710   1  25   0.0017   0.0028   0.0076  -0.0002   0.0024  -0.0006  -0.00  144.4
2023/02/19 09:25:09.926   16.808741214   82.156758379    55.0636   1  25   0.0018   0.0028   0.0075  -0.0007   0.0022  -0.0009  -0.00    5.3
2023/02/19 09:25:11.486   16.808867426   82.156549868    55.2158   1  25   0.0018   0.0027   0.0076  -0.0006   0.0022  -0.0008  -0.00    7.4
2023/02/19 09:25:12.966   16.808981640   82.156343915    55.2526   1  25   0.0017   0.0027   0.0074  -0.0005   0.0022  -0.0008  -0.00    9.3
2023/02/19 09:25:14.465   16.809101629   82.156135229    56.1908   1  25   0.0017   0.0027   0.0075  -0.0005   0.0022  -0.0007  -0.00  134.5
2023/02/19 09:25:16.006   16.809218727   82.155920921    56.8546   1  25   0.0020   0.0028   0.0076  -0.0009   0.0024  -0.0011  -0.00  152.7
2023/02/19 09:25:17.545   16.809335452   82.155703254    56.5807   1  25   0.0017   0.0028   0.0076  -0.0003   0.0023  -0.0005  -0.00  132.8
2023/02/19 09:25:19.046   16.809450248   82.155490177    56.8262   1  25   0.0017   0.0027   0.0075  -0.0005   0.0022  -0.0006  -0.00  135.1
2023/02/19 09:25:20.586   16.809564858   82.155272241    57.2811   1  25   0.0017   0.0027   0.0075  -0.0005   0.0022  -0.0008  -0.00  135.1
2023/02/19 09:25:22.086   16.809679405   82.155060463    57.5169   1  25   0.0017   0.0028   0.0076  -0.0003   0.0024  -0.0006  -0.00  147.3
2023/02/19 09:25:23.585   16.809798363   82.154850039    58.1657   1  25   0.0017   0.0028   0.0076  -0.0003   0.0024  -0.0006  -0.00    3.6
2023/02/19 09:25:25.086   16.809916114   82.154638615    58.3018   1  25   0.0018   0.0028   0.0077  -0.0005   0.0023   0.0006  -0.00    5.4
2023/02/19 09:25:26.625   16.810034511   82.154421430    58.9625   1  25   0.0019   0.0029   0.0078  -0.0009   0.0026  -0.0009  -0.00  173.5
2023/02/19 09:25:28.126   16.810152232   82.154215347    59.6943   1  25   0.0017   0.0028   0.0076  -0.0003   0.0024  -0.0004  -0.00  148.6
2023/02/19 09:25:29.665   16.810269577   82.153998234    59.4678   1  25   0.0019   0.0028   0.0079  -0.0005   0.0025  -0.0007  -0.00  165.7
2023/02/19 09:25:31.126   16.810384311   82.153790255    60.2840   1  25   0.0024   0.0039   0.0107  -0.0005   0.0034  -0.0007  -0.00  149.3
2023/02/19 09:25:32.705   16.810508620   82.153573183    60.3971   1  25   0.0020   0.0029   0.0079  -0.0008   0.0027  -0.0011  -0.00    6.8
2023/02/19 09:25:34.246   16.810624776   82.153365437    59.9049   1  25   0.0020   0.0030   0.0078   0.0004   0.0028  -0.0003  -0.00    9.1
2023/02/19 09:25:35.785   16.810741959   82.153147939    59.1779   1  25   0.0017   0.0027   0.0075  -0.0006   0.0022  -0.0005  -0.00    9.2
2023/02/19 09:25:37.246   16.810847861   82.152933256    59.2219   1  25   0.0017   0.0027   0.0075  -0.0006   0.0022  -0.0004  -0.00   11.7
2023/02/19 09:25:38.745   16.810958326   82.152714228    59.4098   1  25   0.0017   0.0027   0.0075  -0.0006   0.0022  -0.0005  -0.00  128.2
2023/02/19 09:25:40.286   16.811072324   82.152495304    58.6199   1  25   0.0018   0.0028   0.0077  -0.0006   0.0026  -0.0009  -0.00  157.6
2023/02/19 09:25:41.785   16.811187346   82.152283050    57.3792   1  25   0.0017   0.0027   0.0075  -0.0005   0.0022  -0.0008  -0.00  126.8
2023/02/19 09:25:43.246   16.811298622   82.152070082    56.8772   1  25   0.0017   0.0027   0.0075  -0.0005   0.0022  -0.0007  -0.00    3.9
2023/02/19 09:25:44.745   16.811415340   82.151847801    56.6979   1  25   0.0017   0.0027   0.0075  -0.0005   0.0022  -0.0007  -0.00    4.5
2023/02/19 09:25:46.166   16.811526892   82.151637556    56.6502   1  25   0.0017   0.0027   0.0075  -0.0005   0.0022  -0.0008  -0.00    6.6
2023/02/19 09:25:47.665   16.811642736   82.151421040    57.5555   1  25   0.0018   0.0028   0.0076  -0.0004   0.0024   0.0001  -0.00    9.1
2023/02/19 09:25:49.126   16.811753176   82.151214880    58.0521   1  25   0.0017   0.0027   0.0075  -0.0005   0.0022  -0.0008  -0.00   11.1
2023/02/19 09:25:50.705   16.811881306   82.150995271    58.3082   1  25   0.0018   0.0027   0.0075  -0.0006   0.0022  -0.0005  -0.00   13.4
2023/02/19 09:25:52.206   16.812001504   82.150791648    59.0919   1  25   0.0019   0.0028   0.0077   0.0003   0.0024  -0.0006  -0.00   21.8
2023/02/19 09:25:53.826   16.812118634   82.150575101    58.1884   1  25   0.0021   0.0030   0.0081   0.0004   0.0026  -0.0001  -0.00   18.3
2023/02/19 09:25:55.406   16.812229391   82.150357270    57.0772   1  25   0.0021   0.0031   0.0078  -0.0002   0.0028  -0.0004  -0.00   21.8
2023/02/19 09:25:56.946   16.812341543   82.150145329    56.2017   1  25   0.0017   0.0027   0.0075  -0.0005   0.0022  -0.0008  -0.00   22.1
2023/02/19 09:25:58.527   16.812456645   82.149929797    55.1640   1  25   0.0017   0.0028   0.0076  -0.0004   0.0024  -0.0005  -0.00   24.4
2023/02/19 09:26:00.066   16.812568243   82.149717427    54.3111   1  25   0.0019   0.0028   0.0076  -0.0005   0.0024  -0.0002  -0.00   28.9
2023/02/19 09:26:01.606   16.812683838   82.149505876    54.1222   1  25   0.0019   0.0029   0.0080  -0.0001   0.0027  -0.0008  -0.00   33.8
2023/02/19 09:26:03.207   16.812807071   82.149289468    55.0240   1  25   0.0021   0.0031   0.0080  -0.0003   0.0029  -0.0008  -0.00   38.0
2023/02/19 09:26:04.786   16.812924752   82.149080399    57.0603   1  25   0.0017   0.0027   0.0076  -0.0006   0.0022  -0.0008  -0.00   33.8
2023/02/19 09:26:06.526   16.813043147   82.148852799    58.3639   1  25   0.0021   0.0029   0.0077   0.0005   0.0025   0.0005  -0.00   35.3
2023/02/19 09:26:08.087   16.813155082   82.148651496    58.4671   1  25   0.0017   0.0028   0.0078  -0.0003   0.0024  -0.0008  -0.00  149.8
2023/02/19 09:26:09.745   16.813268527   82.148427576    57.2252   1  25   0.0021   0.0031   0.0079  -0.0003   0.0029  -0.0006  -0.00  202.8
2023/02/19 09:26:11.246   16.813378467   82.148218363    57.6449   1  25   0.0018   0.0028   0.0076  -0.0005   0.0025  -0.0007  -0.00  153.6
2023/02/19 09:26:12.825   16.813493957   82.148000322    58.4698   1  25   0.0020   0.0029   0.0078  -0.0007   0.0027  -0.0010  -0.00  167.1
2023/02/19 09:26:14.406   16.813602219   82.147785517    58.6615   1  25   0.0019   0.0029   0.0078  -0.0006   0.0026  -0.0008  -0.00  151.9
2023/02/19 09:26:16.025   16.813720216   82.147564125    58.3435   1  25   0.0021   0.0032   0.0083   0.0005   0.0030   0.0005  -0.00    3.9
2023/02/19 09:26:17.566   16.813837708   82.147357634    57.8881   1  25   0.0017   0.0028   0.0076  -0.0003   0.0024  -0.0006  -0.00    5.6
2023/02/19 09:26:19.185   16.813955520   82.147139192    57.9510   1  25   0.0017   0.0028   0.0076  -0.0003   0.0024  -0.0006  -0.00    7.8
2023/02/19 09:26:20.727   16.814068581   82.146934108    57.7379   1  25   0.0017   0.0028   0.0076  -0.0003   0.0024  -0.0005  -0.00    9.9
2023/02/19 09:26:22.406   16.814189179   82.146710746    57.8496   1  25   0.0021   0.0031   0.0082  -0.0002   0.0028  -0.0007  -0.00   12.5
2023/02/19 09:26:24.025   16.814311489   82.146505437    58.1604   1  25   0.0020   0.0030   0.0078  -0.0006   0.0027  -0.0009  -0.00   19.5
2023/02/19 09:26:25.646   16.814426321   82.146296833    57.6183   1  25   0.0020   0.0030   0.0078  -0.0006   0.0027  -0.0009  -0.00   17.9
2023/02/19 09:26:27.265   16.814531143   82.146072688    57.6809   1  25   0.0019   0.0029   0.0079  -0.0006   0.0023  -0.0012  -0.00   26.3
2023/02/19 09:26:28.846   16.814642107   82.145858674    58.1428   1  25   0.0021   0.0029   0.0080  -0.0007   0.0026  -0.0013  -0.00   31.9
2023/02/19 09:26:30.465   16.814763134   82.145644992    58.9307   1  25   0.0020   0.0030   0.0081  -0.0006   0.0026  -0.0010  -0.00   38.0
2023/02/19 09:26:32.046   16.814876853   82.145433531    59.1463   1  25   0.0019   0.0029   0.0078  -0.0006   0.0026  -0.0007  -0.00  166.6
2023/02/19 09:26:33.665   16.815004204   82.145221325    58.9905   1  25   0.0020   0.0029   0.0077  -0.0009   0.0025  -0.0011  -0.00  178.5
2023/02/19 09:26:35.206   16.815118462   82.145016714    58.3424   1  25   0.0020   0.0028   0.0078  -0.0005   0.0024  -0.0010  -0.00  180.2
2023/02/19 09:26:36.825   16.815231858   82.144790850    56.5703   1  25   0.0022   0.0030   0.0081  -0.0004   0.0024  -0.0015  -0.00    3.8
2023/02/19 09:26:38.326   16.815341983   82.144578112    55.4851   1  25   0.0017   0.0027   0.0075  -0.0005   0.0023  -0.0008  -0.00    4.3
2023/02/19 09:26:39.865   16.815452740   82.144357188    55.1342   1  25   0.0018   0.0028   0.0075  -0.0005   0.0023  -0.0009  -0.00    8.2
2023/02/19 09:26:41.366   16.815563158   82.144141674    54.6974   1  25   0.0017   0.0027   0.0075  -0.0005   0.0023  -0.0008  -0.00    8.1
2023/02/19 09:26:42.905   16.815678841   82.143922770    54.7226   1  25   0.0017   0.0027   0.0075  -0.0005   0.0023  -0.0007  -0.00   10.0
2023/02/19 09:26:44.366   16.815791223   82.143717516    54.9112   1  25   0.0017   0.0027   0.0076  -0.0005   0.0022  -0.0006  -0.00   11.8
2023/02/19 09:26:45.946   16.815911342   82.143492513    55.0846   1  25   0.0017   0.0027   0.0076  -0.0005   0.0023  -0.0007  -0.00  106.0
2023/02/19 09:26:47.406   16.816025952   82.143282751    54.9416   1  25   0.0017   0.0027   0.0075  -0.0005   0.0023  -0.0008  -0.00  105.4
2023/02/19 09:26:48.905   16.816144697   82.143067474    55.1886   1  25   0.0017   0.0027   0.0075  -0.0005   0.0023  -0.0008  -0.00  104.6
2023/02/19 09:26:50.366   16.816259801   82.142853484    55.4029   1  25   0.0017   0.0027   0.0075  -0.0005   0.0023  -0.0008  -0.00  104.8
2023/02/19 09:26:51.825   16.816376268   82.142638245    55.5676   1  25   0.0017   0.0027   0.0075  -0.0006   0.0023  -0.0009  -0.00    4.6
2023/02/19 09:26:53.246   16.816488824   82.142428575    56.1698   1  25   0.0017   0.0027   0.0075  -0.0005   0.0023  -0.0008  -0.00    4.4
2023/02/19 09:26:54.745   16.816609909   82.142209096    56.8285   1  25   0.0017   0.0027   0.0075  -0.0005   0.0023  -0.0007  -0.00    6.1
2023/02/19 09:26:56.166   16.816726572   82.142003995    57.0563   1  25   0.0017   0.0027   0.0076  -0.0005   0.0023  -0.0009  -0.00    8.4
2023/02/19 09:26:57.665   16.816843914   82.141785440    57.2126   1  25   0.0017   0.0027   0.0075  -0.0005   0.0023  -0.0007  -0.00    9.7
2023/02/19 09:26:59.126   16.816958054   82.141574342    57.7234   1  25   0.0017   0.0028   0.0076  -0.0003   0.0024  -0.0006  -0.00   11.5
2023/02/19 09:27:00.665   16.817080733   82.141357946    58.3890   1  25   0.0019   0.0028   0.0077  -0.0001   0.0025   0.0003  -0.00   16.8
2023/02/19 09:27:02.166   16.817196386   82.141149633    58.6231   1  25   0.0017   0.0027   0.0077  -0.0006   0.0023  -0.0008  -0.00   16.0
2023/02/19 09:27:03.705   16.817308722   82.140936525    58.4847   1  25   0.0017   0.0028   0.0076  -0.0003   0.0025  -0.0005  -0.00   16.9
2023/02/19 09:27:05.286   16.817423555   82.140720115    58.2823   1  25   0.0020   0.0029   0.0078  -0.0003   0.0026  -0.0009  -0.00   30.9
2023/02/19 09:27:06.865   16.817533331   82.140503197    58.0466   1  25   0.0017   0.0028   0.0076  -0.0003   0.0025  -0.0005  -0.00   20.7
2023/02/19 09:27:08.406   16.817654300   82.140296079    57.6777   1  25   0.0021   0.0030   0.0081   0.0004   0.0025  -0.0004  -0.00   38.4
2023/02/19 09:27:09.966   16.817832187   82.140121832    57.4271   1  25   0.0018   0.0029   0.0077   0.0006   0.0026   0.0008  -0.00   25.0
2023/02/19 09:27:11.425   16.818060757   82.140043875    57.9419   1  24   0.0018   0.0032   0.0086  -0.0002   0.0035  -0.0007  -0.00   27.3
2023/02/19 09:27:12.766   16.818285624   82.140060349    58.9699   1  25   0.0021   0.0030   0.0079  -0.0003   0.0029  -0.0006  -0.00   30.3
2023/02/19 09:27:14.225   16.818514110   82.140131485    59.6870   1  25   0.0017   0.0027   0.0076  -0.0006   0.0023  -0.0008  -0.00   38.5
2023/02/19 09:27:15.646   16.818730979   82.140207020    59.7672   1  24   0.0019   0.0028   0.0077  -0.0004   0.0021  -0.0007  -0.00   50.3
2023/02/19 09:27:17.145   16.818969447   82.140257687    58.6269   1  25   0.0018   0.0028   0.0077  -0.0004   0.0021  -0.0006  -0.00   48.9
2023/02/19 09:27:18.566   16.819202020   82.140280872    58.3109   1  25   0.0017   0.0028   0.0077  -0.0004   0.0021  -0.0009  -0.00   37.2
2023/02/19 09:27:19.985   16.819435259   82.140279063    58.1206   1  25   0.0017   0.0027   0.0076  -0.0005   0.0023  -0.0007  -0.00   37.1
2023/02/19 09:27:21.406   16.819669284   82.140263637    57.5710   1  25   0.0017   0.0028   0.0077  -0.0005   0.0021  -0.0008  -0.00  104.6
2023/02/19 09:27:22.825   16.819905863   82.140242260    57.0958   1  25   0.0017   0.0027   0.0076  -0.0005   0.0023  -0.0008  -0.00  100.5
2023/02/19 09:27:24.246   16.820138059   82.140220706    57.9490   1  25   0.0017   0.0027   0.0075  -0.0005   0.0023  -0.0008  -0.00  108.5
2023/02/19 09:27:25.705   16.820373381   82.140203256    58.5446   1  25   0.0017   0.0027   0.0075  -0.0005   0.0023  -0.0008  -0.00  109.4
2023/02/19 09:27:27.166   16.820605817   82.140195855    59.0126   1  25   0.0017   0.0027   0.0076  -0.0005   0.0023  -0.0005  -0.00  109.6
2023/02/19 09:27:28.665   16.820840947   82.140185810    59.3647   1  25   0.0017   0.0027   0.0075  -0.0005   0.0023  -0.0008  -0.00  102.2
2023/02/19 09:27:30.166   16.821071706   82.140170194    59.8511   1  25   0.0019   0.0029   0.0078  -0.0001   0.0023   0.0003  -0.00    3.7
2023/02/19 09:27:31.745   16.821315280   82.140156771    59.6676   1  25   0.0018   0.0028   0.0076  -0.0005   0.0023  -0.0004  -0.00    5.6
2023/02/19 09:27:33.206   16.821544795   82.140146512    58.6640   1  26   0.0019   0.0029   0.0074   0.0004   0.0020   0.0008  -0.00    8.0
2023/02/19 09:27:34.745   16.821787052   82.140139237    57.1864   1  26   0.0017   0.0027   0.0073  -0.0004   0.0018   0.0005  -0.00    9.8
2023/02/19 09:27:36.206   16.822015844   82.140124126    56.0998   1  26   0.0018   0.0028   0.0073  -0.0001   0.0019   0.0008  -0.00   12.0
2023/02/19 09:27:37.705   16.822248618   82.140104461    55.4606   1  26   0.0017   0.0027   0.0073  -0.0003   0.0020   0.0008  -0.00  103.8
2023/02/19 09:27:39.246   16.822480088   82.140070805    55.5328   1  26   0.0021   0.0028   0.0077  -0.0002   0.0018  -0.0012  -0.00  225.1
2023/02/19 09:27:40.846   16.822694466   82.139966521    54.8155   1  26   0.0020   0.0027   0.0073  -0.0002   0.0019  -0.0007  -0.00  122.8
2023/02/19 09:27:42.486   16.822887664   82.139819878    54.0649   1  26   0.0020   0.0028   0.0076   0.0002   0.0022   0.0003  -0.00  106.2
2023/02/19 09:27:44.086   16.823082180   82.139686994    53.8102   1  26   0.0022   0.0028   0.0073   0.0007   0.0020  -0.0004  -0.00    3.9
2023/02/19 09:27:45.726   16.823264450   82.139536214    54.7606   1  25   0.0022   0.0028   0.0076  -0.0008   0.0023  -0.0014  -0.00    4.5
2023/02/19 09:27:47.486   16.823345253   82.139306429    55.2209   1  26   0.0019   0.0028   0.0075  -0.0008   0.0023  -0.0009  -0.00    6.5
2023/02/19 09:27:49.246   16.823334145   82.139060902    55.5730   1  26   0.0017   0.0027   0.0072  -0.0005   0.0020   0.0003  -0.00   11.6
2023/02/19 09:27:50.966   16.823336071   82.138816282    55.4054   1  26   0.0017   0.0027   0.0073  -0.0005   0.0021  -0.0005  -0.00    4.3
2023/02/19 09:27:52.686   16.823367962   82.138573295    55.9948   1  26   0.0022   0.0030   0.0080   0.0004   0.0025  -0.0010  -0.00    9.4
2023/02/19 09:27:54.425   16.823421487   82.138329167    56.6776   1  26   0.0020   0.0029   0.0079  -0.0008   0.0022  -0.0013  -0.00   15.8
2023/02/19 09:27:56.086   16.823471343   82.138101944    57.4026   1  26   0.0021   0.0030   0.0081  -0.0006   0.0025  -0.0009  -0.00   20.9
2023/02/19 09:27:57.865   16.823533042   82.137860936    57.8497   1  26   0.0022   0.0030   0.0081   0.0004   0.0025  -0.0009  -0.00    3.3
2023/02/19 09:27:59.566   16.823599857   82.137628628    58.2304   1  26   0.0019   0.0028   0.0075  -0.0008   0.0023  -0.0008  -0.00    3.9
2023/02/19 09:28:01.265   16.823658514   82.137387544    58.0852   1  26   0.0021   0.0030   0.0079   0.0003   0.0026   0.0002  -0.00    3.9
2023/02/19 09:28:02.886   16.823721099   82.137154575    58.3086   1  26   0.0020   0.0028   0.0077  -0.0008   0.0024  -0.0011  -0.00    3.2
2023/02/19 09:28:04.585   16.823788115   82.136912576    58.5590   1  26   0.0018   0.0027   0.0074  -0.0004   0.0021   0.0004  -0.00    4.1
2023/02/19 09:28:06.206   16.823855572   82.136679838    58.4498   1  26   0.0022   0.0030   0.0081   0.0004   0.0025  -0.0009  -0.00    4.2
2023/02/19 09:28:07.865   16.823913724   82.136435222    57.8201   1  26   0.0020   0.0029   0.0077  -0.0007   0.0021  -0.0010  -0.00    4.4
2023/02/19 09:28:09.446   16.823964936   82.136202965    57.6649   1  26   0.0020   0.0029   0.0078  -0.0005   0.0024  -0.0007  -0.00    5.3
2023/02/19 09:28:11.105   16.824030945   82.135965409    57.7045   1  26   0.0022   0.0030   0.0081   0.0003   0.0025  -0.0009  -0.00    5.3
2023/02/19 09:28:12.806   16.824092060   82.135723513    57.3101   1  26   0.0022   0.0030   0.0081   0.0004   0.0025  -0.0009  -0.00    4.9
2023/02/19 09:28:14.486   16.824158210   82.135492310    56.9212   1  26   0.0018   0.0027   0.0073  -0.0003   0.0022  -0.0004  -0.00    3.8
2023/02/19 09:28:16.265   16.824221088   82.135254921    56.0235   1  26   0.0018   0.0028   0.0075  -0.0008   0.0023  -0.0006  -0.00    3.9
2023/02/19 09:28:18.006   16.824274193   82.135018402    55.0378   1  26   0.0020   0.0029   0.0078  -0.0005   0.0024  -0.0006  -0.00    3.6
2023/02/19 09:28:19.785   16.824334401   82.134773893    54.7510   1  26   0.0022   0.0030   0.0081   0.0004   0.0025  -0.0009  -0.00    4.9
2023/02/19 09:28:21.526   16.824400411   82.134541123    54.6415   1  26   0.0020   0.0030   0.0078   0.0004   0.0026  -0.0007  -0.00    3.5
2023/02/19 09:28:23.305   16.824466345   82.134304305    54.4425   1  26   0.0022   0.0031   0.0079   0.0007   0.0025  -0.0006  -0.00    5.6
2023/02/19 09:28:25.046   16.824525658   82.134065013    54.4508   1  26   0.0022   0.0030   0.0079   0.0002   0.0023  -0.0010  -0.00    6.3
2023/02/19 09:28:26.785   16.824588760   82.133825201    55.9612   1  26   0.0020   0.0028   0.0075  -0.0008   0.0023  -0.0007  -0.00    6.2
2023/02/19 09:28:28.486   16.824645234   82.133595299    56.8837   1  26   0.0022   0.0030   0.0079   0.0003   0.0023  -0.0011  -0.00    4.7
2023/02/19 09:28:30.305   16.824706207   82.133351415    57.3367   1  27   0.0022   0.0029   0.0081  -0.0004   0.0024  -0.0011  -0.00    3.3
2023/02/19 09:28:32.086   16.824768519   82.133112437    57.6306   1  27   0.0020   0.0030   0.0079  -0.0003   0.0025  -0.0005  -0.00    3.7
2023/02/19 09:28:33.846   16.824827307   82.132875961    57.3710   1  26   0.0022   0.0030   0.0079   0.0002   0.0023  -0.0010  -0.00    7.0
2023/02/19 09:28:35.566   16.824896175   82.132649085    58.5464   1  26   0.0020   0.0028   0.0074  -0.0008   0.0023  -0.0008  -0.00    7.1
2023/02/19 09:28:37.385   16.824959914   82.132412867    59.3422   1  26   0.0019   0.0028   0.0079  -0.0006   0.0022  -0.0012  -0.00    6.6
2023/02/19 09:28:39.166   16.825029030   82.132175188    58.0600   1  26   0.0020   0.0029   0.0077  -0.0006   0.0023  -0.0008  -0.00    7.2
2023/02/19 09:28:40.865   16.825087567   82.131938904    56.3378   1  26   0.0021   0.0030   0.0081  -0.0005   0.0025  -0.0010  -0.00    3.8
2023/02/19 09:28:42.525   16.825146218   82.131703017    55.9164   1  26   0.0020   0.0028   0.0075  -0.0008   0.0023  -0.0007  -0.00    5.9
2023/02/19 09:28:44.206   16.825205145   82.131460705    55.3528   1  26   0.0022   0.0030   0.0081   0.0004   0.0025  -0.0009  -0.00    8.8
2023/02/19 09:28:45.825   16.825265325   82.131223459    54.9065   1  26   0.0021   0.0030   0.0081  -0.0005   0.0025  -0.0009  -0.00   11.3
2023/02/19 09:28:47.407   16.825327635   82.130991474    54.6993   1  26   0.0020   0.0029   0.0078  -0.0004   0.0024  -0.0004  -0.00    3.4
2023/02/19 09:28:49.086   16.825394022   82.130747621    55.6181   1  26   0.0021   0.0030   0.0079   0.0002   0.0026   0.0004  -0.00   16.1
2023/02/19 09:28:50.766   16.825456071   82.130515301    57.1008   1  26   0.0016   0.0027   0.0072  -0.0005   0.0021  -0.0008  -0.00    8.0
2023/02/19 09:28:52.486   16.825515449   82.130279807    56.6523   1  26   0.0021   0.0030   0.0081  -0.0005   0.0025  -0.0009  -0.00   10.4
2023/02/19 09:28:54.166   16.825574290   82.130041736    56.3585   1  26   0.0020   0.0029   0.0076  -0.0001   0.0025   0.0001  -0.00   23.5
2023/02/19 09:28:55.785   16.825640353   82.129807759    55.8586   1  26   0.0017   0.0027   0.0072  -0.0006   0.0021  -0.0008  -0.00   15.5
2023/02/19 09:28:57.367   16.825709553   82.129569015    56.3006   1  26   0.0017   0.0027   0.0073  -0.0007   0.0022  -0.0010  -0.00   18.3
2023/02/19 09:28:58.926   16.825766084   82.129329185    55.9037   1  26   0.0017   0.0027   0.0072  -0.0006   0.0021  -0.0009  -0.00   21.8
2023/02/19 09:29:00.487   16.825820739   82.129091749    56.3873   1  26   0.0018   0.0027   0.0076  -0.0004   0.0023  -0.0008  -0.00   24.5
2023/02/19 09:29:02.126   16.825887377   82.128852869    56.9756   1  26   0.0020   0.0028   0.0075  -0.0008   0.0024  -0.0008  -0.00   28.9
2023/02/19 09:29:03.686   16.825954541   82.128626184    56.2338   1  26   0.0019   0.0027   0.0074  -0.0006   0.0022   0.0003  -0.00    4.3
2023/02/19 09:29:05.326   16.826016446   82.128383135    55.5458   1  26   0.0020   0.0028   0.0075  -0.0008   0.0024  -0.0007  -0.00    5.4
2023/02/19 09:29:06.966   16.826079206   82.128141036    55.6218   1  26   0.0017   0.0027   0.0072  -0.0005   0.0021  -0.0007  -0.00    9.0
2023/02/19 09:29:08.566   16.826136850   82.127905776    56.5877   1  26   0.0017   0.0027   0.0074  -0.0004   0.0022  -0.0005  -0.00    9.6
2023/02/19 09:29:10.207   16.826194971   82.127668962    57.3361   1  26   0.0022   0.0029   0.0080  -0.0005   0.0021  -0.0016  -0.00   15.4
2023/02/19 09:29:11.846   16.826253766   82.127435309    57.8709   1  26   0.0020   0.0029   0.0079  -0.0008   0.0023  -0.0012  -0.00   17.7
2023/02/19 09:29:13.566   16.826313164   82.127195198    58.1950   1  25   0.0020   0.0028   0.0076  -0.0008   0.0024  -0.0009  -0.00   20.4
2023/02/19 09:29:15.206   16.826378449   82.126960081    57.6050   1  26   0.0022   0.0031   0.0079   0.0008   0.0025   0.0005  -0.00    3.4
2023/02/19 09:29:16.806   16.826538685   82.126766591    57.8401   1  25   0.0022   0.0034   0.0088   0.0011   0.0035   0.0013  -0.00    4.7
2023/02/19 09:29:18.286   16.826758262   82.126689408    59.0541   1  26   0.0017   0.0027   0.0071  -0.0001   0.0020  -0.0004  -0.00    5.2
2023/02/19 09:29:19.806   16.826993798   82.126722963    60.2930   1  26   0.0017   0.0027   0.0075  -0.0003   0.0022  -0.0008  -0.00   11.2
2023/02/19 09:29:21.286   16.827187713   82.126858683    60.9709   1  26   0.0018   0.0027   0.0074  -0.0005   0.0020  -0.0006  -0.00    6.2
2023/02/19 09:29:22.846   16.827317008   82.127070860    61.2580   1  26   0.0020   0.0028   0.0079  -0.0007   0.0022  -0.0013  -0.00   13.3
2023/02/19 09:29:24.367   16.827332583   82.127319386    61.8400   1  25   0.0020   0.0028   0.0078  -0.0008   0.0021  -0.0013  -0.00   17.7
2023/02/19 09:29:25.825   16.827242567   82.127539500    62.1220   1  26   0.0019   0.0027   0.0073  -0.0005   0.0019  -0.0003  -0.00    5.7
2023/02/19 09:29:27.326   16.827112728   82.127738430    61.9383   1  26   0.0016   0.0026   0.0071  -0.0004   0.0019  -0.0005  -0.00    9.5
2023/02/19 09:29:28.886   16.826982655   82.127946697    60.0410   1  26   0.0017   0.0027   0.0072  -0.0005   0.0021  -0.0003  -0.00   14.8
2023/02/19 09:29:30.406   16.826857657   82.128154032    57.2873   1  26   0.0020   0.0030   0.0077   0.0005   0.0024   0.0009  -0.00    3.7
